{
"type": "FeatureCollection",
"name": "sau",
"crs": { "type": "name", "properties": { "name": "urn:ogc:def:crs:OGC:1.3:CRS84" } },
"features": [
{ "type": "Feature", "properties": { "fid": 1, "Type de SAU": "SAU polyvalent", "Etablissement": "CH Saint-Brieuc", "Adresse": "10 rue Marcel Proust, 22000 Saint-Brieuc, France", "latitude": 48.492779, "longitude": -2.748905, "Ville": "Saint-Brieuc", "Localisation": "SAU Bretagne", "Statut": "public" }, "geometry": { "type": "Point", "coordinates": [ -2.748905, 48.492779 ] } },
{ "type": "Feature", "properties": { "fid": 2, "Type de SAU": "SAU Pédiatrie", "Etablissement": "CH Saint-Brieuc Pédiatrie", "Adresse": "10 rue Marcel Proust, 22000 Saint-Brieuc, France", "latitude": 48.492779, "longitude": -2.748905, "Ville": "Saint-Brieuc", "Localisation": "SAU Bretagne", "Statut": "public" }, "geometry": { "type": "Point", "coordinates": [ -2.748905, 48.492779 ] } },
{ "type": "Feature", "properties": { "fid": 3, "Type de SAU": "SAU polyvalent", "Etablissement": "CH Dinan", "Adresse": "74 Rue Chateaubriand, 22100 Dinan, France", "latitude": 48.444459, "longitude": -2.047319, "Ville": "Dinan", "Localisation": "SAU Bretagne", "Statut": "public" }, "geometry": { "type": "Point", "coordinates": [ -2.047319, 48.444459 ] } },
{ "type": "Feature", "properties": { "fid": 4, "Type de SAU": "SAU polyvalent", "Etablissement": "CH Guingamp", "Adresse": "17 Rue de l'Armor, 22205 Pabu, France", "latitude": 48.567537, "longitude": -3.143454, "Ville": "Guingamp", "Localisation": "SAU Bretagne", "Statut": "public" }, "geometry": { "type": "Point", "coordinates": [ -3.143454, 48.567537 ] } },
{ "type": "Feature", "properties": { "fid": 5, "Type de SAU": "SAU polyvalent", "Etablissement": "CH Lannion", "Adresse": "Centre Hospitalier Pierre-le-Damany, 22303 Lannion, France", "latitude": 48.722429890278399, "longitude": -3.46443188982192, "Ville": "Lannion", "Localisation": "SAU Bretagne", "Statut": "public" }, "geometry": { "type": "Point", "coordinates": [ -3.464431889821919, 48.722429890278406 ] } },
{ "type": "Feature", "properties": { "fid": 6, "Type de SAU": "SAU polyvalent", "Etablissement": "CH Paimpol", "Adresse": "36 Chemin de Kerpuns, 22500 Paimpol, France", "latitude": 48.773298, "longitude": -3.036802, "Ville": "Paimpol", "Localisation": "SAU Bretagne", "Statut": "public" }, "geometry": { "type": "Point", "coordinates": [ -3.036802, 48.773298 ] } },
{ "type": "Feature", "properties": { "fid": 7, "Type de SAU": "SAU polyvalent", "Etablissement": "Hôtel-Dieu de Pont-L'Abbé", "Adresse": "Rue Roger Signor, 29120 Pont-l'Abbe, France", "latitude": 47.862905, "longitude": -4.22317, "Ville": "Pont-L'Abbe", "Localisation": "SAU Bretagne", "Statut": "privé" }, "geometry": { "type": "Point", "coordinates": [ -4.22317, 47.862905 ] } },
{ "type": "Feature", "properties": { "fid": 8, "Type de SAU": "SAU Pédiatrie", "Etablissement": "CHRU Brest - Morvan", "Adresse": "2 avenue Foch, 29000 BREST, France", "latitude": 48.392675, "longitude": -4.487565, "Ville": "Brest", "Localisation": "SAU Bretagne", "Statut": "public" }, "geometry": { "type": "Point", "coordinates": [ -4.487565, 48.392675 ] } },
{ "type": "Feature", "properties": { "fid": 9, "Type de SAU": "SAU polyvalent", "Etablissement": "CHRU Brest - Carhaix", "Adresse": "14B Rue du Docteur Menguy, 29270, Carhaix-Plouguer, France", "latitude": 48.274257, "longitude": -3.578877, "Ville": "Carhaix-Plouguer", "Localisation": "SAU Bretagne", "Statut": "public" }, "geometry": { "type": "Point", "coordinates": [ -3.578877, 48.274257 ] } },
{ "type": "Feature", "properties": { "fid": 10, "Type de SAU": "SAU polyvalent", "Etablissement": "CHRU Brest - Cavale Blanche", "Adresse": "Bd Tanguy Prigent, 29200 Brest", "latitude": 48.397732, "longitude": -4.483254, "Ville": "Brest", "Localisation": "SAU Bretagne", "Statut": "public" }, "geometry": { "type": "Point", "coordinates": [ -4.483254, 48.397732 ] } },
{ "type": "Feature", "properties": { "fid": 11, "Type de SAU": "SAU polyvalent", "Etablissement": "CH Landerneau", "Adresse": "1 Rte de Pencran, 29800 Landerneau", "latitude": 48.447822, "longitude": -4.23479, "Ville": "Landerneau", "Localisation": "SAU Bretagne", "Statut": "public" }, "geometry": { "type": "Point", "coordinates": [ -4.23479, 48.447822 ] } },
{ "type": "Feature", "properties": { "fid": 12, "Type de SAU": "SAU polyvalent", "Etablissement": "CH Douarnenez", "Adresse": "85 Rue Laennec, 29100 Douarnenez, France", "latitude": 48.083839, "longitude": -4.316658, "Ville": "Douarnenez", "Localisation": "SAU Bretagne", "Statut": "public" }, "geometry": { "type": "Point", "coordinates": [ -4.316658, 48.083839 ] } },
{ "type": "Feature", "properties": { "fid": 13, "Type de SAU": "SAU polyvalent", "Etablissement": "CHIC - Quimper", "Adresse": "14bis Avenue Yves Thepot, 29107 Quimper, France", "latitude": 47.986959, "longitude": -4.092645, "Ville": "Quimper", "Localisation": "SAU Bretagne", "Statut": "public" }, "geometry": { "type": "Point", "coordinates": [ -4.092645, 47.986959 ] } },
{ "type": "Feature", "properties": { "fid": 14, "Type de SAU": "SAU polyvalent", "Etablissement": "CHIC - Concarneau", "Adresse": "61 Rue de Tregunc, 29900 Concarneau, France", "latitude": 47.866184, "longitude": -3.902325, "Ville": "Concarneau", "Localisation": "SAU Bretagne", "Statut": "public" }, "geometry": { "type": "Point", "coordinates": [ -3.902325, 47.866184 ] } },
{ "type": "Feature", "properties": { "fid": 15, "Type de SAU": "SAU polyvalent", "Etablissement": "CH Morlaix", "Adresse": "15 Rue de Kersaint Gilly, 29600 Morlaix, France", "latitude": 48.569881, "longitude": -3.830611, "Ville": "Morlaix", "Localisation": "SAU Bretagne", "Statut": "public" }, "geometry": { "type": "Point", "coordinates": [ -3.830611, 48.569881 ] } },
{ "type": "Feature", "properties": { "fid": 16, "Type de SAU": "SAU polyvalent", "Etablissement": "Polyclinique Keraudren", "Adresse": "375 Rue Ernestine de Trémaudan, 29200 Brest", "latitude": 48.429992, "longitude": -4.476978, "Ville": "Brest", "Localisation": "SAU Bretagne", "Statut": "privé" }, "geometry": { "type": "Point", "coordinates": [ -4.476978, 48.429992 ] } },
{ "type": "Feature", "properties": { "fid": 17, "Type de SAU": "SAU polyvalent", "Etablissement": "CH Saint-Malo", "Adresse": "1 Rue de la Marne, 35400 Saint-Malo, France", "latitude": 48.634111, "longitude": -2.008021, "Ville": "Saint-Malo", "Localisation": "SAU Bretagne", "Statut": "public" }, "geometry": { "type": "Point", "coordinates": [ -2.008021, 48.634111 ] } },
{ "type": "Feature", "properties": { "fid": 18, "Type de SAU": "SAU polyvalent", "Etablissement": "CH Fougères", "Adresse": "133 Rue de la Foret, 35300 Fougeres, France", "latitude": 48.358443, "longitude": -1.193463, "Ville": "Fougeres", "Localisation": "SAU Bretagne", "Statut": "public" }, "geometry": { "type": "Point", "coordinates": [ -1.193463, 48.358443 ] } },
{ "type": "Feature", "properties": { "fid": 19, "Type de SAU": "SAU polyvalent", "Etablissement": "CH Redon", "Adresse": "8 Avenue Etienne Gascon, 35600 Redon, France", "latitude": 47.653971, "longitude": -2.080782, "Ville": "Redon", "Localisation": "SAU Bretagne", "Statut": "public" }, "geometry": { "type": "Point", "coordinates": [ -2.080782, 47.653971 ] } },
{ "type": "Feature", "properties": { "fid": 20, "Type de SAU": "SAU polyvalent", "Etablissement": "CH Vitré", "Adresse": "30 Route de Rennes, 35500 Vitre, France", "latitude": 48.122187, "longitude": -1.228181, "Ville": "Vitre", "Localisation": "SAU Bretagne", "Statut": "public" }, "geometry": { "type": "Point", "coordinates": [ -1.228181, 48.122187 ] } },
{ "type": "Feature", "properties": { "fid": 21, "Type de SAU": "SAU polyvalent", "Etablissement": "CHP Saint-Grégoire", "Adresse": "6 Bd de la Boutière CS 56816,  35760 Saint-Grégoire", "latitude": 48.144594, "longitude": -1.687152, "Ville": "Saint-Gregoire", "Localisation": "SAU Bretagne", "Statut": "privé" }, "geometry": { "type": "Point", "coordinates": [ -1.687152, 48.144594 ] } },
{ "type": "Feature", "properties": { "fid": 22, "Type de SAU": "SAU polyvalent", "Etablissement": "Hôpital privé Sévigné", "Adresse": "3 Rue du Chêne Germain, 35510 Cesson-Sévigné", "latitude": 48.130109, "longitude": -1.627381, "Ville": "Cesson-Sevigne", "Localisation": "SAU Bretagne", "Statut": "privé" }, "geometry": { "type": "Point", "coordinates": [ -1.627381, 48.130109 ] } },
{ "type": "Feature", "properties": { "fid": 23, "Type de SAU": "SAU polyvalent", "Etablissement": "CHRU Rennes - Pontchaillou", "Adresse": "Rue du Recteur Paul Henry, 35000 Rennes, France", "latitude": 48.123174, "longitude": -1.700441, "Ville": "Rennes", "Localisation": "SAU Bretagne", "Statut": "public" }, "geometry": { "type": "Point", "coordinates": [ -1.700441, 48.123174 ] } },
{ "type": "Feature", "properties": { "fid": 24, "Type de SAU": "SAU Pédiatrie", "Etablissement": "CHRU Rennes - Hôpital Sud", "Adresse": "16 Bd de Bulgarie, 35200 Rennes", "latitude": 48.083876, "longitude": -1.653382, "Ville": "Rennes", "Localisation": "SAU Bretagne", "Statut": "public" }, "geometry": { "type": "Point", "coordinates": [ -1.653382, 48.083876 ] } },
{ "type": "Feature", "properties": { "fid": 25, "Type de SAU": "SAU polyvalent", "Etablissement": "CH Ploërmel", "Adresse": "7 Rue du Roi Arthur, 56800 Ploermel, France", "latitude": 47.934841, "longitude": -2.391655, "Ville": "Ploermel", "Localisation": "SAU Bretagne", "Statut": "public" }, "geometry": { "type": "Point", "coordinates": [ -2.391655, 47.934841 ] } },
{ "type": "Feature", "properties": { "fid": 26, "Type de SAU": "SAU polyvalent", "Etablissement": "GHBS Quimperlé", "Adresse": "20 bis Boulevard du Marechal Leclerc, 29300 Quimperle, France", "latitude": 47.869915, "longitude": -3.557787, "Ville": "Quimperle", "Localisation": "SAU Bretagne", "Statut": "public" }, "geometry": { "type": "Point", "coordinates": [ -3.557787, 47.869915 ] } },
{ "type": "Feature", "properties": { "fid": 27, "Type de SAU": "SAU polyvalent", "Etablissement": "GHBS Lorient", "Adresse": "5 Avenue Choiseul, 56322 Lorient, France", "latitude": 47.752578, "longitude": -3.355969, "Ville": "Lorient", "Localisation": "SAU Bretagne", "Statut": "public" }, "geometry": { "type": "Point", "coordinates": [ -3.355969, 47.752578 ] } },
{ "type": "Feature", "properties": { "fid": 28, "Type de SAU": "SAU Pédiatrie", "Etablissement": "GHBS Lorient - Pédiatrie", "Adresse": "5 Avenue Choiseul, 56322 Lorient, France", "latitude": 47.752578, "longitude": -3.355969, "Ville": "Lorient", "Localisation": "SAU Bretagne", "Statut": "public" }, "geometry": { "type": "Point", "coordinates": [ -3.355969, 47.752578 ] } },
{ "type": "Feature", "properties": { "fid": 29, "Type de SAU": "SAU polyvalent", "Etablissement": "CHCB - Noyal Pontivy", "Adresse": "Kerio, 56920 Noyal-Pontivy", "latitude": 48.096096, "longitude": -2.915792, "Ville": "Noyal-Pontivy", "Localisation": "SAU Bretagne", "Statut": "public" }, "geometry": { "type": "Point", "coordinates": [ -2.915792, 48.096096 ] } },
{ "type": "Feature", "properties": { "fid": 30, "Type de SAU": "SAU polyvalent", "Etablissement": "CHBA - Vannes", "Adresse": "Avenue Favrel et Lincy, 56000 Vannes, France", "latitude": 47.664123, "longitude": -2.754549, "Ville": "Vannes", "Localisation": "SAU Bretagne", "Statut": "public" }, "geometry": { "type": "Point", "coordinates": [ -2.754549, 47.664123 ] } },
{ "type": "Feature", "properties": { "fid": 31, "Type de SAU": "SAU Pédiatrie", "Etablissement": "CHBA - Vannes - Pédiatrie", "Adresse": "Avenue Favrel et Lincy, 56000 Vannes, France", "latitude": 47.664123, "longitude": -2.754549, "Ville": "Vannes", "Localisation": "SAU Bretagne", "Statut": "public" }, "geometry": { "type": "Point", "coordinates": [ -2.754549, 47.664123 ] } },
{ "type": "Feature", "properties": { "fid": 32, "Type de SAU": "SAU polyvalent", "Etablissement": "HIA Clermont Tonnerre", "Adresse": "Rue Colonel Fonferrier, 29240 Brest", "latitude": 48.391542, "longitude": -4.492667, "Ville": "Brest", "Localisation": "SAU Bretagne", "Statut": "militaire" }, "geometry": { "type": "Point", "coordinates": [ -4.492667, 48.391542 ] } }
]
}
